{
"type": "FeatureCollection",
"name": "mapathony_mesta",
"crs": { "type": "name", "properties": { "name": "urn:ogc:def:crs:OGC:1.3:CRS84" } },
"features": [
{ "type": "Feature", "properties": { "fid": 1, "Name": "Geografický ústav", "count": 11 }, "geometry": { "type": "Point", "coordinates": [ 16.5971765, 49.2048814, 0.0 ] } },
{ "type": "Feature", "properties": { "fid": 2, "Name": "KPMG Česká republika", "count": 1 }, "geometry": { "type": "Point", "coordinates": [ 14.4390573, 50.092308, 0.0 ] } },
{ "type": "Feature", "properties": { "fid": 3, "Name": "Přírodovědecká fakulta Univerzity Palackého v Olomouci", "count": 18 }, "geometry": { "type": "Point", "coordinates": [ 17.2631877, 49.5924087, 0.0 ] } },
{ "type": "Feature", "properties": { "fid": 4, "Name": "Scheidt & Bachmann Slovensko s.r.o. – centrála softvérovej a výrobnej spoločnosti", "count": 1 }, "geometry": { "type": "Point", "coordinates": [ 18.7240066, 49.2211952, 0.0 ] } },
{ "type": "Feature", "properties": { "fid": 5, "Name": "Fakulta informatiky MU", "count": 2 }, "geometry": { "type": "Point", "coordinates": [ 16.5989768, 49.2099358, 0.0 ] } },
{ "type": "Feature", "properties": { "fid": 7, "Name": "Lékaři bez hranic, o. p. s.", "count": 4 }, "geometry": { "type": "Point", "coordinates": [ 14.4725023, 50.1060028, 0.0 ] } },
{ "type": "Feature", "properties": { "fid": 9, "Name": "Faculty of Civil Engineering STU", "count": 2 }, "geometry": { "type": "Point", "coordinates": [ 17.115389, 48.1512628, 0.0 ] } },
{ "type": "Feature", "properties": { "fid": 10, "Name": "Kiwi.com", "count": 2 }, "geometry": { "type": "Point", "coordinates": [ 16.6360649, 49.2072222, 0.0 ] } },
{ "type": "Feature", "properties": { "fid": 12, "Name": "Ringier Axel Springer SK, a.s.", "count": 2 }, "geometry": { "type": "Point", "coordinates": [ 18.7557472, 49.2138793, 0.0 ] } },
{ "type": "Feature", "properties": { "fid": 14, "Name": "Deloitte", "count": 2 }, "geometry": { "type": "Point", "coordinates": [ 14.439891, 50.0840645, 0.0 ] } },
{ "type": "Feature", "properties": { "fid": 15, "Name": "Kounicova 15", "count": 1 }, "geometry": { "type": "Point", "coordinates": [ 16.5927609, 49.2115474, 0.0 ] } },
{ "type": "Feature", "properties": { "fid": 16, "Name": "Fakulta humanitných a prírodných vied Prešovskej univerzity", "count": 4 }, "geometry": { "type": "Point", "coordinates": [ 21.2359111, 48.9884243, 0.0 ] } },
{ "type": "Feature", "properties": { "fid": 18, "Name": "Faculty of Horticulture and Landscape Engineering", "count": 2 }, "geometry": { "type": "Point", "coordinates": [ 18.0789368, 48.3138457, 0.0 ] } },
{ "type": "Feature", "properties": { "fid": 19, "Name": "Fakulta informačních technologií Vysokého učení technického v Brně", "count": 3 }, "geometry": { "type": "Point", "coordinates": [ 16.5959257, 49.2264571, 0.0 ] } },
{ "type": "Feature", "properties": { "fid": 20, "Name": "Česká spořitelna, a.s. - sídlo společnosti", "count": 1 }, "geometry": { "type": "Point", "coordinates": [ 14.4481525, 50.0442895, 0.0 ] } },
{ "type": "Feature", "properties": { "fid": 23, "Name": "Red Hat Czech", "count": 1 }, "geometry": { "type": "Point", "coordinates": [ 16.5760301, 49.2312716, 0.0 ] } },
{ "type": "Feature", "properties": { "fid": 24, "Name": "KAFARA", "count": 1 }, "geometry": { "type": "Point", "coordinates": [ 16.6490282, 49.2300217, 0.0 ] } },
{ "type": "Feature", "properties": { "fid": 26, "Name": "the italians wine food", "count": 3 }, "geometry": { "type": "Point", "coordinates": [ 14.4103504, 50.0631245, 0.0 ] } },
{ "type": "Feature", "properties": { "fid": 27, "Name": "Mickiewiczova 2246/9", "count": 1 }, "geometry": { "type": "Point", "coordinates": [ 17.1157632, 48.1500941, 0.0 ] } },
{ "type": "Feature", "properties": { "fid": 28, "Name": "Paralelní Polis", "count": 3 }, "geometry": { "type": "Point", "coordinates": [ 14.4505411, 50.1033527, 0.0 ] } },
{ "type": "Feature", "properties": { "fid": 29, "Name": "Opero", "count": 5 }, "geometry": { "type": "Point", "coordinates": [ 14.4208185, 50.0888182, 0.0 ] } },
{ "type": "Feature", "properties": { "fid": 30, "Name": "Faculty of Management Science and Informatics", "count": 3 }, "geometry": { "type": "Point", "coordinates": [ 18.7618106, 49.2022865, 0.0 ] } },
{ "type": "Feature", "properties": { "fid": 31, "Name": "ČSOB Bank branch", "count": 1 }, "geometry": { "type": "Point", "coordinates": [ 17.0948856, 48.1409187, 0.0 ] } },
{ "type": "Feature", "properties": { "fid": 34, "Name": "Pracovna", "count": 2 }, "geometry": { "type": "Point", "coordinates": [ 14.4481598, 50.083691, 0.0 ] } },
{ "type": "Feature", "properties": { "fid": 36, "Name": "Stanica", "count": 1 }, "geometry": { "type": "Point", "coordinates": [ 18.730866, 49.2183412, 0.0 ] } },
{ "type": "Feature", "properties": { "fid": 38, "Name": "Prírodovedecká fakulta Univerzity Komenského", "count": 2 }, "geometry": { "type": "Point", "coordinates": [ 17.0717723, 48.1501057, 0.0 ] } },
{ "type": "Feature", "properties": { "fid": 39, "Name": "Seznam.cz", "count": 3 }, "geometry": { "type": "Point", "coordinates": [ 14.400966, 50.0704015, 0.0 ] } },
{ "type": "Feature", "properties": { "fid": 40, "Name": "CleverMaps, a.s.", "count": 2 }, "geometry": { "type": "Point", "coordinates": [ 16.6024178, 49.1518943, 0.0 ] } },
{ "type": "Feature", "properties": { "fid": 41, "Name": "PwC - konferenční centrum", "count": 1 }, "geometry": { "type": "Point", "coordinates": [ 14.4353741, 50.0505538, 0.0 ] } },
{ "type": "Feature", "properties": { "fid": 43, "Name": "New synagogue Žilina", "count": 1 }, "geometry": { "type": "Point", "coordinates": [ 18.7371143, 49.2248056, 0.0 ] } },
{ "type": "Feature", "properties": { "fid": 46, "Name": "Kominárska 1552/3A", "count": 1 }, "geometry": { "type": "Point", "coordinates": [ 17.1236467, 48.1597346, 0.0 ] } },
{ "type": "Feature", "properties": { "fid": 49, "Name": "Skautský institut", "count": 1 }, "geometry": { "type": "Point", "coordinates": [ 14.4198551, 50.0865762, 0.0 ] } },
{ "type": "Feature", "properties": { "fid": 50, "Name": "Business Cloud s.r.o.", "count": 1 }, "geometry": { "type": "Point", "coordinates": [ 17.0996313, 48.1488476, 0.0 ] } },
{ "type": "Feature", "properties": { "fid": 55, "Name": "Prostor39", "count": 1 }, "geometry": { "type": "Point", "coordinates": [ 14.4445654, 50.0864269, 0.0 ] } },
{ "type": "Feature", "properties": { "fid": 59, "Name": "Psychiatrická nemocnice Bohnice", "count": 1 }, "geometry": { "type": "Point", "coordinates": [ 14.4237324, 50.1335106, 0.0 ] } },
{ "type": "Feature", "properties": { "fid": 62, "Name": "SUDOP PRAHA a.s.", "count": 1 }, "geometry": { "type": "Point", "coordinates": [ 14.4630562, 50.0837009, 0.0 ] } },
{ "type": "Feature", "properties": { "fid": 70, "Name": "Avast", "count": 2 }, "geometry": { "type": "Point", "coordinates": [ 14.4411987, 50.0522349, 0.0 ] } },
{ "type": "Feature", "properties": { "fid": 78, "Name": "Prírodovedecká fakulta Univerzity Pavla Jozefa Šafárika v Košiciach", "count": 1 }, "geometry": { "type": "Point", "coordinates": [ 21.2483742, 48.7288409, 0.0 ] } },
{ "type": "Feature", "properties": { "fid": 82, "Name": "Hybernská 4", "count": 1 }, "geometry": { "type": "Point", "coordinates": [ 14.429897, 50.0870578, 0.0 ] } },
{ "type": "Feature", "properties": { "fid": 87, "Name": "Technická univerzita ve Zvolenu", "count": 1 }, "geometry": { "type": "Point", "coordinates": [ 19.1173149, 48.5723721, 0.0 ] } },
{ "type": "Feature", "properties": { "fid": 88, "Name": "Ponk Coworking Nitra", "count": 1 }, "geometry": { "type": "Point", "coordinates": [ 18.0885705, 48.3170316, 0.0 ] } },
{ "type": "Feature", "properties": { "fid": 90, "Name": "Univerzita Konstantina Filozofa v Nitře", "count": 1 }, "geometry": { "type": "Point", "coordinates": [ 18.091441, 48.308376, 0.0 ] } },
{ "type": "Feature", "properties": { "fid": 91, "Name": "Lékařská fakulta Masarykovy univerzity", "count": 1 }, "geometry": { "type": "Point", "coordinates": [ 16.5694376, 49.1770795, 0.0 ] } },
{ "type": "Feature", "properties": { "fid": 92, "Name": "Ackee, s. r. o.", "count": 1 }, "geometry": { "type": "Point", "coordinates": [ 14.3908682, 50.1001369, 0.0 ] } },
{ "type": "Feature", "properties": { "fid": 93, "Name": "Univerzita Jana Amose Komenského Praha", "count": 1 }, "geometry": { "type": "Point", "coordinates": [ 14.4602206, 50.0882399, 0.0 ] } },
{ "type": "Feature", "properties": { "fid": 95, "Name": "SVĚT HUB coworking meeting bookstore", "count": 2 }, "geometry": { "type": "Point", "coordinates": [ 14.4461977, 50.0727425, 0.0 ] } },
{ "type": "Feature", "properties": { "fid": 98, "Name": "Impact Hub Praha K10", "count": 2 }, "geometry": { "type": "Point", "coordinates": [ 14.442093, 50.0698935, 0.0 ] } },
{ "type": "Feature", "properties": { "fid": 105, "Name": "Francouzský institut v Praze", "count": 1 }, "geometry": { "type": "Point", "coordinates": [ 14.4251309, 50.0788521, 0.0 ] } },
{ "type": "Feature", "properties": { "fid": 106, "Name": "NTK - Ballingův sál", "count": 1 }, "geometry": { "type": "Point", "coordinates": [ 14.3910115, 50.1037128, 0.0 ] } },
{ "type": "Feature", "properties": { "fid": 109, "Name": "Filozofická fakulta Univerzity Karlovy", "count": 1 }, "geometry": { "type": "Point", "coordinates": [ 14.4160227, 50.0889643, 0.0 ] } },
{ "type": "Feature", "properties": { "fid": 110, "Name": "Economia, a.s.", "count": 1 }, "geometry": { "type": "Point", "coordinates": [ 14.454216, 50.0914916, 0.0 ] } },
{ "type": "Feature", "properties": { "fid": 111, "Name": "Gymnázium Jevíčko", "count": 2 }, "geometry": { "type": "Point", "coordinates": [ 16.7075186, 49.6310186, 0.0 ] } },
{ "type": "Feature", "properties": { "fid": 112, "Name": "Nemocnice Nové Město na Moravě", "count": 1 }, "geometry": { "type": "Point", "coordinates": [ 16.06282, 49.5603206, 0.0 ] } },
{ "type": "Feature", "properties": { "fid": 113, "Name": "Ekocentrum Paleta z.s.", "count": 1 }, "geometry": { "type": "Point", "coordinates": [ 15.784473, 50.032958, 0.0 ] } },
{ "type": "Feature", "properties": { "fid": 114, "Name": "Fakulta logistiky a krizového řízení - Univerzita Tomáše Bati ve Zlíně", "count": 3 }, "geometry": { "type": "Point", "coordinates": [ 17.472873, 49.0703245, 0.0 ] } },
{ "type": "Feature", "properties": { "fid": 115, "Name": "HUB 2.0", "count": 1 }, "geometry": { "type": "Point", "coordinates": [ 13.3815583, 49.736582, 0.0 ] } },
{ "type": "Feature", "properties": { "fid": 117, "Name": "Západočeská univerzita v Plzni", "count": 1 }, "geometry": { "type": "Point", "coordinates": [ 13.3750261, 49.7470413, 0.0 ] } }
]
}
